{"type":"FeatureCollection","features":[{"type":"Feature","properties":{"Landmark":"Berkeley City Hall","Address":"2134 Grove Street (now Martin Luther King, Jr. Way)","Architect + Date":"John Bakewell Jr. & Arthur M. Brown Jr. (1907)","Link":"https://berkeleyheritage.com/berkeley_landmarks/city_hall.html","Designated":"15 Dec 1975","Notes":"Civic Center Historic District; #81000142, National Register of Historic Places (1998)"},"geometry":{"coordinates":[-122.27317788946777,37.8695876578295],"type":"Point"}},{"type":"Feature","properties":{"Landmark":"Berkeley Public Library","Address":"2090 Kittredge Street at Shattuck Avenue","Architect + Date":"James W. Plachek (1930)","Link":"https://berkeleyheritage.com/berkeley_landmarks/images/public_library.jpg","Designated":"19 Apr 1982","Notes":"#82002156, National Register of Historic Places (1982)"},"geometry":{"coordinates":[-122.26852773712488,37.868198450532674],"type":"Point"}},{"type":"Feature","properties":{"Landmark":"People’s Park","Address":"2526 Haste Street/2448 Bowditch Street/2551","Architect + Date":"(1969)","Link":"https://en.wikipedia.org/wiki/People%27s_Park_(Berkeley)","Designated":"19 Nov 1984","Notes":"CA State Historic Resources Inventory"},"geometry":{"coordinates":[-122.2571357939945,37.865756580915075],"type":"Point"}},{"type":"Feature","properties":{"Address":"Esplanade Drive, University of California Campus","Landmark":"Sather Tower (Campanile) & Esplanade","Architect + Date":"John Galen Howard (1913–17)","Link":"https://berkeleyheritage.com/berkeley_landmarks/campanile.html","Designated":"25 Feb 1991","Notes":"California Historic Landmark No. 946 National Register of Historic Places (1982)"},"geometry":{"coordinates":[-122.25781662244232,37.87205938167028],"type":"Point"}},{"type":"Feature","properties":{"Landmark":"Doe Memorial Library","Address":"Campus Drive, University of California Campus","Architect + Date":"California Historic Landmark No. 946 #82004639, National Register of Historic Places (1982)","Designated":"25 Feb 1991","Notes":"California Historic Landmark No. 946 #82004639, National Register of Historic Places (1982)","Link":"https://berkeleyheritage.com/berkeley_landmarks/images/UC_campus/Doe.jpg"},"geometry":{"coordinates":[-122.25949195727478,37.87219248165371],"type":"Point"}},{"type":"Feature","properties":{"Landmark":"Hearst Greek Theatre","Address":"Gayley Road, University of California Campus","Architect + Date":"Gayley Road, University of California Campus","Link":"https://digitalassets.lib.berkeley.edu/calheritage/ucb/alameda/figures/I0025889B.jpg","Designated":"25 Feb 1991","Notes":"California Historic Landmark No. 946 #82004644, National Register of Historic Places (1982)"},"geometry":{"coordinates":[-122.2542309294301,37.87370103630742],"type":"Point"}},{"type":"Feature","properties":{"Link":"https://berkeleyheritage.com/berkeley_landmarks/municipal-rose-garden.html","Landmark":"Berkeley Municipal Rose Garden","Address":"Euclid Avenue between Bay View Place & Eunice Street","Architect + Date":"Vernon M. Dean (1933–1937)","Designated":"3 Mar 1995"},"geometry":{"coordinates":[-122.26329859233797,37.885118505319085],"type":"Point"}},{"type":"Feature","properties":{"Address":"2120 Oxford Street","Architect + Date":"Charles F. Masten & Lester W. Hurd (1939)","Link":"https://berkeleyheritage.com/berkeley_landmarks/2004_landmarks.html","Landmark":"University of California Press Building","Designated":"7 June 2004","Notes":"CA State Historic Resources Inventory"},"geometry":{"coordinates":[-122.26648875018527,37.87099117026726],"type":"Point"}},{"type":"Feature","properties":{"Landmark":"Lawrence Berkeley National Laboratory Bevatron Site","Link":"https://berkeleyheritage.com/berkeley_landmarks/2006_landmarks.html","Address":"One Cyclotron Road","Architect + Date":"Masten & Hurd (1949–1954)","Designated":"3 August 2006"},"geometry":{"coordinates":[-122.24665026877642,37.877128317482004],"type":"Point"}},{"type":"Feature","properties":{"Landmark":"University Art Museum","Link":"https://berkeleyheritage.com/berkeley_landmarks/2012_landmarks.html","Architect + Date":"Mario J. Ciampi, Richard L. Jorasch, Ronald E. Wagner, & (initially) Paul W. Reiter (1967–1970)","Address":"2626 Bancroft Way/2625 Durant Avenue","Designated":"2 February 2012"},"geometry":{"coordinates":[-122.25587132788492,37.86870273915301],"type":"Point"}}]}